{
  "SimulationId": "sim0",
  "SimulationName": "Test Simulation Created by Jhao-Ting Chen",
  "StartTime": "2023-03-17T00:52:14",
  "EndTime": "2023-03-18T00:52:14",
  "CarId": "Tesla",
  "TrackId": "easy1",
  "gps": 
      [
          "$GPGGA,123519,4807.038,N,01131.000,E,1,08,0.9,545.4,M,46.9,M,,*47",
          "$GPGGA,123520,4807.040,N,01131.001,E,1,08,0.9,545.4,M,46.9,M,,*46",
          "$GPGGA,123521,4807.042,N,01131.003,E,1,08,0.9,545.4,M,46.9,M,,*45",
          "$GPGGA,123522,4807.044,N,01131.006,E,1,08,0.9,545.4,M,46.9,M,,*44",
          "$GPGGA,123523,4807.045,N,01131.010,E,1,08,0.9,545.4,M,46.9,M,,*43",
          "$GPGGA,123524,4807.045,N,01131.015,E,1,08,0.9,545.4,M,46.9,M,,*42",
          "$GPGGA,123525,4807.044,N,01131.020,E,1,08,0.9,545.4,M,46.9,M,,*41",
          "$GPGGA,123526,4807.042,N,01131.024,E,1,08,0.9,545.4,M,46.9,M,,*40",
          "$GPGGA,123527,4807.040,N,01131.027,E,1,08,0.9,545.4,M,46.9,M,,*4F",
          "$GPGGA,123528,4807.038,N,01131.029,E,1,08,0.9,545.4,M,46.9,M,,*4E",
          "$GPGGA,123529,4807.036,N,01131.030,E,1,08,0.9,545.4,M,46.9,M,,*4D",
          "$GPGGA,123530,4807.035,N,01131.030,E,1,08,0.9,545.4,M,46.9,M,,*4C",
          "$GPGGA,123531,4807.033,N,01131.029,E,1,08,0.9,545.4,M,46.9,M,,*4B",
          "$GPGGA,123532,4807.031,N,01131.027,E,1,08,0.9,545.4,M,46.9,M,,*4A",
          "$GPGGA,123533,4807.029,N,01131.024,E,1,08,0.9,545.4,M,46.9,M,,*49",
          "$GPGGA,123534,4807.028,N,01131.020,E,1,08,0.9,545.4,M,46.9,M,,*48",
          "$GPGGA,123535,4807.027,N,01131.015,E,1,08,0.9,545.4,M,46.9,M,,*47",
          "$GPGGA,123536,4807.027,N,01131.010,E,1,08,0.9,545.4,M,46.9,M,,*46",
          "$GPGGA,123537,4807.027,N,01131.006,E,1,08,0.9,545.4,M,46.9,M,,*45",
          "$GPGGA,123538,4807.028,N,01131.003,E,1,08,0.9,545.4,M,46.9,M,,*44",
          "$GPGGA,123539,4807.029,N,01131.001,E,1,08,0.9,545.4,M,46.9,M,,*43",
          "$GPGGA,123540,4807.031,N,01131.000,E,1,08,0.9,545.4,M,46.9,M,,*42",
          "$GPGGA,123541,4807.033,N,01130.999,E,1,08,0.9,545.4,M,46.9,M,,*41",
          "$GPGGA,123542,4807.035,N,01130.999,E,1,08,0.9,545.4,M,46.9,M,,*40",
          "$GPGGA,123543,4807.038,N,01131.000,E,1,08,0.9,545.4,M,46.9,M,,*4F",
          "$GPGGA,123544,4807.040,N,01131.001,E,1,08,0.9,545.4,M,46.9,M,,*4E",
          "$GPGGA,123545,4807.042,N,01131.003,E,1,08,0.9,545.4,M,46.9,M,,*4D",
          "$GPGGA,123546,4807.044,N,01131.006,E,1,08,0.9,545.4,M,46.9,M,,*4C",
          "$GPGGA,123547,4807.045,N,01131.010,E,1,08,0.9,545.4,M,46.9,M,,*4B",
          "$GPGGA,123548,4807.045,N,01131.015,E,1,08,0.9,545.4,M,46.9,M,,*4A",
          "$GPGGA,123549,4807.044,N,01131.020,E,1,08,0.9,545.4,M,46.9,M,,*49",
          "$GPGGA,123550,4807.042,N,01131.024,E,1,08,0.9,545.4,M,46.9,M,,*48",
          "$GPGGA,123551,4807.040,N,01131.027,E,1,08,0.9,545.4,M,46.9,M,,*47",
          "$GPGGA,123552,4807.038,N,01131.029,E,1,08,0.9,545.4,M,46.9,M,,*46",
          "$GPGGA,123553,4807.036,N,01131.030,E,1,08,0.9,545.4,M,46.9,M,,*45",
          "$GPGGA,123554,4807.035,N,01131.030,E,1,08,0.9,545.4,M,46.9,M,,*44",
          "$GPGGA,123555,4807.033,N,01131.029,E,1,08,0.9,545.4,M,46.9,M,,*43",
          "$GPGGA,123556,4807.031,N,01131.027,E,1,08,0.9,545.4,M,46.9,M,,*42",
          "$GPGGA,123557,4807.029,N,01131.024,E,1,08,0.9,545.4,M,46.9,M,,*41",
          "$GPGGA,123558,4807.028,N,01131.020,E,1,08,0.9,545.4,M,46.9,M,,*40",
          "$GPGGA,123559,4807.027,N,01131.015,E,1,08,0.9,545.4,M,46.9,M,,*4F"
      ],
  "Speed": {
      "value": [
          43,
          47,
          56,
          58,
          59,
          59,
          60,
          62,
          60,
          59,
          55,
          12,
          30,
          35,
          37,
          38,
          38,
          40
      ],
      "time": [
          "2023-03-17T15:23:14",
          "2023-03-17T15:23:16",
          "2023-03-17T15:23:18",
          "2023-03-17T15:23:20",
          "2023-03-17T15:23:22",
          "2023-03-17T15:23:24",
          "2023-03-17T15:23:26",
          "2023-03-17T15:23:28",
          "2023-03-17T15:23:30",
          "2023-03-17T15:23:32",
          "2023-03-17T15:23:34",
          "2023-03-17T15:23:36",
          "2023-03-17T15:23:38",
          "2023-03-17T15:23:40",
          "2023-03-17T15:23:42",
          "2023-03-17T15:23:44",
          "2023-03-17T15:23:46",
          "2023-03-17T15:23:48"
      ]
  },
  "CarStatus": {
      "value": [
          0,
          0,
          0,
          0,
          1,
          1,
          1,
          1,
          1,
          1,
          1,
          1,
          1,
          1,
          1,
          0,
          0,
          0
      ],
      "time": [
          "2023-03-17T15:23:14",
          "2023-03-17T15:23:16",
          "2023-03-17T15:23:18",
          "2023-03-17T15:23:20",
          "2023-03-17T15:23:22",
          "2023-03-17T15:23:24",
          "2023-03-17T15:23:26",
          "2023-03-17T15:23:28",
          "2023-03-17T15:23:30",
          "2023-03-17T15:23:32",
          "2023-03-17T15:23:34",
          "2023-03-17T15:23:36",
          "2023-03-17T15:23:38",
          "2023-03-17T15:23:40",
          "2023-03-17T15:23:42",
          "2023-03-17T15:23:44",
          "2023-03-17T15:23:46",
          "2023-03-17T15:23:48"
      ]
  },
  "Accel": {
      "value": [
          2,
          2,
          3,
          3,
          3,
          6,
          6,
          6,
          6,
          10,
          10,
          10,
          -5,
          0,
          0,
          2,
          1,
          0
      ],
      "time": [
          "2023-03-17T15:23:14",
          "2023-03-17T15:23:16",
          "2023-03-17T15:23:18",
          "2023-03-17T15:23:20",
          "2023-03-17T15:23:22",
          "2023-03-17T15:23:24",
          "2023-03-17T15:23:26",
          "2023-03-17T15:23:28",
          "2023-03-17T15:23:30",
          "2023-03-17T15:23:32",
          "2023-03-17T15:23:34",
          "2023-03-17T15:23:36",
          "2023-03-17T15:23:38",
          "2023-03-17T15:23:40",
          "2023-03-17T15:23:42",
          "2023-03-17T15:23:44",
          "2023-03-17T15:23:46",
          "2023-03-17T15:23:48"
      ]
  },
  "Direction": {
      "value": [
          2,
          2,
          3,
          3,
          3,
          6,
          6,
          6,
          6,
          10,
          10,
          10,
          -5,
          0,
          0,
          2,
          1,
          0
      ],
      "time": [
          "2023-03-17T15:23:14",
          "2023-03-17T15:23:16",
          "2023-03-17T15:23:18",
          "2023-03-17T15:23:20",
          "2023-03-17T15:23:22",
          "2023-03-17T15:23:24",
          "2023-03-17T15:23:26",
          "2023-03-17T15:23:28",
          "2023-03-17T15:23:30",
          "2023-03-17T15:23:32",
          "2023-03-17T15:23:34",
          "2023-03-17T15:23:36",
          "2023-03-17T15:23:38",
          "2023-03-17T15:23:40",
          "2023-03-17T15:23:42",
          "2023-03-17T15:23:44",
          "2023-03-17T15:23:46",
          "2023-03-17T15:23:48"
      ]
  },
  "ServoAngle": {
      "value": [
          2,
          2,
          3,
          3,
          3,
          6,
          6,
          6,
          6,
          10,
          10,
          10,
          -5,
          0,
          0,
          2,
          1,
          0
      ],
      "time": [
          "2023-03-17T15:23:14",
          "2023-03-17T15:23:16",
          "2023-03-17T15:23:18",
          "2023-03-17T15:23:20",
          "2023-03-17T15:23:22",
          "2023-03-17T15:23:24",
          "2023-03-17T15:23:26",
          "2023-03-17T15:23:28",
          "2023-03-17T15:23:30",
          "2023-03-17T15:23:32",
          "2023-03-17T15:23:34",
          "2023-03-17T15:23:36",
          "2023-03-17T15:23:38",
          "2023-03-17T15:23:40",
          "2023-03-17T15:23:42",
          "2023-03-17T15:23:44",
          "2023-03-17T15:23:46",
          "2023-03-17T15:23:48"
      ]
  },
  "EngineTemperature": {
      "value": [
          2.5,
          2.5,
          3.5,
          3.5,
          3.5,
          6.5,
          6.5,
          6.5,
          6.5,
          10.5,
          10.5,
          10.5,
          -5.5,
          0.5,
          0.5,
          2.5,
          1.5,
          0.5
      ],
      "time": [
          "2023-03-17T15:23:14",
          "2023-03-17T15:23:16",
          "2023-03-17T15:23:18",
          "2023-03-17T15:23:20",
          "2023-03-17T15:23:22",
          "2023-03-17T15:23:24",
          "2023-03-17T15:23:26",
          "2023-03-17T15:23:28",
          "2023-03-17T15:23:30",
          "2023-03-17T15:23:32",
          "2023-03-17T15:23:34",
          "2023-03-17T15:23:36",
          "2023-03-17T15:23:38",
          "2023-03-17T15:23:40",
          "2023-03-17T15:23:42",
          "2023-03-17T15:23:44",
          "2023-03-17T15:23:46",
          "2023-03-17T15:23:48"
      ]
  },
  "RPM": {
      "value": [
          2,
          2,
          3,
          3,
          3,
          6,
          6,
          6,
          6,
          10,
          10,
          10,
          -5,
          0,
          0,
          2,
          1,
          0
      ],
      "time": [
          "2023-03-17T15:23:14",
          "2023-03-17T15:23:16",
          "2023-03-17T15:23:18",
          "2023-03-17T15:23:20",
          "2023-03-17T15:23:22",
          "2023-03-17T15:23:24",
          "2023-03-17T15:23:26",
          "2023-03-17T15:23:28",
          "2023-03-17T15:23:30",
          "2023-03-17T15:23:32",
          "2023-03-17T15:23:34",
          "2023-03-17T15:23:36",
          "2023-03-17T15:23:38",
          "2023-03-17T15:23:40",
          "2023-03-17T15:23:42",
          "2023-03-17T15:23:44",
          "2023-03-17T15:23:46",
          "2023-03-17T15:23:48"
      ]
  },
  "Position": {
      "value": [
          {"X": 0.01, "Y": 0.02, "Z": 0.03},
          {"X": 0.01, "Y": 0.02, "Z": 0.03},
          {"X": 0.01, "Y": 0.02, "Z": 0.03},
          {"X": 0.01, "Y": 0.02, "Z": 0.03},
          {"X": 0.01, "Y": 0.02, "Z": 0.03},
          {"X": 0.01, "Y": 0.02, "Z": 0.03}
      ],
      "time": [
          "2023-03-17T15:23:14",
          "2023-03-17T15:23:16",
          "2023-03-17T15:23:18",
          "2023-03-17T15:23:20",
          "2023-03-17T15:23:22",
          "2023-03-17T15:23:24"
      ]
  },
  "Yaw": {
      "value": [
          {"X": 0.01, "Y": 0.02, "Z": 0.03},
          {"X": 0.01, "Y": 0.02, "Z": 0.03},
          {"X": 0.01, "Y": 0.02, "Z": 0.03},
          {"X": 0.01, "Y": 0.02, "Z": 0.03},
          {"X": 0.01, "Y": 0.02, "Z": 0.03},
          {"X": 0.01, "Y": 0.02, "Z": 0.03}
      ],
      "time": [
          "2023-03-17T15:23:14",
          "2023-03-17T15:23:16",
          "2023-03-17T15:23:18",
          "2023-03-17T15:23:20",
          "2023-03-17T15:23:22",
          "2023-03-17T15:23:24"
      ]
  },
  "Pitch": {
      "value": [
          {"X": 0.01, "Y": 0.02, "Z": 0.03},
          {"X": 0.01, "Y": 0.02, "Z": 0.03},
          {"X": 0.01, "Y": 0.02, "Z": 0.03},
          {"X": 0.01, "Y": 0.02, "Z": 0.03},
          {"X": 0.01, "Y": 0.02, "Z": 0.03},
          {"X": 0.01, "Y": 0.02, "Z": 0.03}
      ],
      "time": [
          "2023-03-17T15:23:14",
          "2023-03-17T15:23:16",
          "2023-03-17T15:23:18",
          "2023-03-17T15:23:20",
          "2023-03-17T15:23:22",
          "2023-03-17T15:23:24"
      ]
  },
  "Roll": {
      "value": [
          {"X": 0.01, "Y": 0.02, "Z": 0.03},
          {"X": 0.01, "Y": 0.02, "Z": 0.03},
          {"X": 0.01, "Y": 0.02, "Z": 0.03},
          {"X": 0.01, "Y": 0.02, "Z": 0.03},
          {"X": 0.01, "Y": 0.02, "Z": 0.03},
          {"X": 0.01, "Y": 0.02, "Z": 0.03}
      ],
      "time": [
          "2023-03-17T15:23:14",
          "2023-03-17T15:23:16",
          "2023-03-17T15:23:18",
          "2023-03-17T15:23:20",
          "2023-03-17T15:23:22",
          "2023-03-17T15:23:24"
      ]
  }
}